[
    {
        "id": 1,
        "name": "مستشفى الملك فهد الجامعي",
        "name_en": "King Fahd University Hospital",
        "type": "hospital",
        "address": "طريق الملك فهد، حي الياسمين، الرياض 11564",
        "phone": "920012345",
        "emergency_phone": "997",
        "lat": 24.7236,
        "lng": 46.6853,
        "is_open": true,
        "working_hours": "24 ساعة",
        "specialties": [
            "طوارئ",
            "جراحة",
            "باطنية",
            "أطفال"
        ],
        "beds_count": 520,
        "rating": 4.5
    },
    {
        "id": 2,
        "name": "مستشفى الملك خالد الجامعي",
        "name_en": "King Khalid University Hospital",
        "type": "hospital",
        "address": "طريق الملك عبدالعزيز، حي المربع، الرياض",
        "phone": "920023456",
        "emergency_phone": "997",
        "lat": 24.7136,
        "lng": 46.6753,
        "is_open": true,
        "working_hours": "24 ساعة",
        "specialties": [
            "طوارئ",
            "قلب",
            "عظام",
            "أعصاب"
        ],
        "beds_count": 850,
        "rating": 4.7
    },
    {
        "id": 3,
        "name": "مستشفى الحرس الوطني",
        "name_en": "National Guard Hospital",
        "type": "hospital",
        "address": "طريق الملك عبدالعزيز، الرياض",
        "phone": "920034567",
        "emergency_phone": "997",
        "lat": 24.745,
        "lng": 46.658,
        "is_open": true,
        "working_hours": "24 ساعة",
        "specialties": [
            "طوارئ",
            "جراحة",
            "نساء وولادة"
        ],
        "beds_count": 1200,
        "rating": 4.8
    },
    {
        "id": 4,
        "name": "مركز الإسعاف الرئيسي",
        "name_en": "Main Ambulance Center",
        "type": "ambulance",
        "address": "شارع العليا، حي العليا، الرياض",
        "phone": "997",
        "emergency_phone": "997",
        "lat": 24.7036,
        "lng": 46.6653,
        "is_open": true,
        "working_hours": "24 ساعة",
        "ambulances_count": 25,
        "rating": 4.6
    },
    {
        "id": 5,
        "name": "مركز الإسعاف الشمالي",
        "name_en": "North Ambulance Center",
        "type": "ambulance",
        "address": "طريق الدائري الشمالي، الرياض",
        "phone": "997",
        "emergency_phone": "997",
        "lat": 24.785,
        "lng": 46.67,
        "is_open": true,
        "working_hours": "24 ساعة",
        "ambulances_count": 15,
        "rating": 4.4
    },
    {
        "id": 6,
        "name": "الدفاع المدني - المركز الرئيسي",
        "name_en": "Civil Defense - Main Center",
        "type": "fire_station",
        "address": "طريق الملك عبدالعزيز، حي المربع، الرياض",
        "phone": "998",
        "emergency_phone": "998",
        "lat": 24.7336,
        "lng": 46.6953,
        "is_open": true,
        "working_hours": "24 ساعة",
        "fire_trucks_count": 12,
        "rating": 4.9
    },
    {
        "id": 7,
        "name": "الدفاع المدني - شمال الرياض",
        "name_en": "Civil Defense - North Riyadh",
        "type": "fire_station",
        "address": "طريق الدائري الشمالي، الرياض",
        "phone": "998",
        "emergency_phone": "998",
        "lat": 24.78,
        "lng": 46.66,
        "is_open": true,
        "working_hours": "24 ساعة",
        "fire_trucks_count": 8,
        "rating": 4.7
    },
    {
        "id": 8,
        "name": "مركز شرطة النخيل",
        "name_en": "Al Nakheel Police Station",
        "type": "police",
        "address": "حي النخيل، شمال الرياض",
        "phone": "989",
        "emergency_phone": "911",
        "lat": 24.7436,
        "lng": 46.7053,
        "is_open": true,
        "working_hours": "24 ساعة",
        "officers_count": 45,
        "rating": 4.5
    },
    {
        "id": 9,
        "name": "مركز شرطة العليا",
        "name_en": "Olaya Police Station",
        "type": "police",
        "address": "شارع العليا، الرياض",
        "phone": "989",
        "emergency_phone": "911",
        "lat": 24.71,
        "lng": 46.675,
        "is_open": true,
        "working_hours": "24 ساعة",
        "officers_count": 60,
        "rating": 4.6
    },
    {
        "id": 10,
        "name": "مركز الأمن الشامل",
        "name_en": "Comprehensive Security Center",
        "type": "police",
        "address": "طريق الملك فهد، الرياض",
        "phone": "911",
        "emergency_phone": "911",
        "lat": 24.715,
        "lng": 46.685,
        "is_open": true,
        "working_hours": "24 ساعة",
        "officers_count": 80,
        "rating": 4.8
    }
]